City,Country,Lat,Lng,Max Temp,Humidity,Cloudiness,Wind Speed,Current Description
Isiro,CD,2.7739,27.616,66.38,98,24,1.01,light rain
Ushuaia,AR,-54.8,-68.3,35.22,96,100,11.05,light rain
Haines Junction,CA,60.7522,-137.5108,48.45,92,100,2.08,overcast clouds
Mataura,NZ,-46.1927,168.8643,40.48,90,95,4.88,overcast clouds
Tuktoyaktuk,CA,69.4541,-133.0374,40.84,89,99,6.93,light rain
Hobart,AU,-42.8794,147.3294,47.05,84,75,3.0,broken clouds
Tapes,BR,-30.6733,-51.3958,67.3,90,47,9.4,scattered clouds
New Norfolk,AU,-42.7826,147.0587,46.71,72,100,1.99,overcast clouds
Chuy,UY,-33.6971,-53.4616,66.27,88,39,5.77,scattered clouds
Busselton,AU,-33.65,115.3333,55.09,92,100,5.44,overcast clouds
Xaxim,BR,-26.9617,-52.5347,79.21,48,0,5.12,clear sky
Hilo,US,19.7297,-155.09,81.81,88,90,4.61,light rain
Punta Arenas,CL,-53.15,-70.9167,42.91,70,75,14.97,light rain
Deputatskiy,RU,69.3,139.9,47.57,74,98,1.61,overcast clouds
Nome,US,64.5011,-165.4064,46.47,62,90,10.36,overcast clouds
Albany,US,42.6001,-73.9662,81.63,94,100,2.84,overcast clouds
Bengkulu,ID,-3.8004,102.2655,73.83,93,100,8.34,overcast clouds
Chopda,IN,21.25,75.3,74.62,96,100,7.02,moderate rain
Port Alfred,ZA,-33.5906,26.891,57.94,84,15,10.89,few clouds
Bluff,NZ,-46.6,168.3333,40.8,81,99,18.48,overcast clouds
Meulaboh,ID,4.1363,96.1285,73.94,89,96,4.21,overcast clouds
Oranjemund,NA,-28.55,16.4333,54.75,95,6,1.97,clear sky
Grajau,BR,-5.8194,-46.1386,97.52,17,7,5.46,clear sky
Presidencia Roque Saenz Pena,AR,-26.7852,-60.4388,101.28,15,0,13.42,clear sky
Cherskiy,RU,68.75,161.3,50.45,53,11,14.92,few clouds
Dikson,RU,73.5069,80.5464,40.73,90,100,11.54,overcast clouds
Lao Cai,VN,22.4833,103.95,75.49,96,98,1.14,overcast clouds
Nioro,GM,13.35,-15.75,77.0,89,98,7.99,overcast clouds
Kigonsera,TZ,-10.8,35.05,57.43,65,5,1.68,clear sky
Kodiak,US,57.79,-152.4072,63.91,63,52,5.75,broken clouds
Beaufort,MY,5.3473,115.7455,74.1,96,100,2.66,overcast clouds
Djambala,CG,-2.5447,14.7533,74.5,69,100,3.69,moderate rain
Jamestown,US,42.097,-79.2353,72.99,98,90,5.01,moderate rain
Kapaa,US,22.0752,-159.319,83.12,68,40,1.01,scattered clouds
Saint-Philippe,RE,-21.3585,55.7679,67.55,79,52,11.43,broken clouds
Saint George,US,37.1041,-113.5841,95.63,25,20,8.01,haze
Saint-Pierre,RE,-21.3393,55.4781,67.64,64,0,3.44,clear sky
Tilichiki,RU,60.4667,166.1,47.43,75,66,4.72,broken clouds
Chumikan,RU,54.7183,135.315,59.22,94,100,2.17,overcast clouds
Boda,CF,4.3189,17.4695,68.41,96,100,2.98,overcast clouds
Cabo San Lucas,MX,22.8909,-109.9124,93.51,66,20,14.97,few clouds
Talnakh,RU,69.4865,88.3972,41.61,73,79,2.19,broken clouds
Komsomolskiy,UZ,40.4272,71.7189,72.82,23,2,4.29,clear sky
Victoria,HK,22.2855,114.1577,84.18,85,83,3.91,broken clouds
Ilulissat,GL,69.2167,-51.1,48.22,76,100,1.14,overcast clouds
Grindavik,IS,63.8424,-22.4338,54.07,100,90,5.75,overcast clouds
Aksarka,RU,66.5606,67.7975,44.65,76,30,7.2,scattered clouds
Sinnamary,GF,5.3833,-52.95,82.0,80,15,9.62,few clouds
Constitucion,CL,-35.3333,-72.4167,53.33,97,100,10.87,light rain
Gat,IL,31.61,34.7642,79.48,64,0,2.98,clear sky
Rikitea,PF,-23.1203,-134.9692,69.06,84,97,12.82,light rain
Lebu,CL,-37.6167,-73.65,53.13,88,100,10.33,overcast clouds
Butaritari,KI,3.0707,172.7902,82.9,70,90,9.42,overcast clouds
Bredasdorp,ZA,-34.5322,20.0403,50.29,92,100,2.71,overcast clouds
Tuatapere,NZ,-46.1333,167.6833,40.82,88,96,5.84,overcast clouds
Barrow,US,71.2906,-156.7887,35.62,87,90,14.97,mist
Longyearbyen,SJ,78.2186,15.6401,44.44,65,75,9.22,broken clouds
Westport,US,41.1415,-73.3579,83.95,85,40,1.01,scattered clouds
Poum,NC,-20.2333,164.0167,70.7,79,100,7.0,overcast clouds
Clyde River,CA,70.4692,-68.5914,40.42,85,100,9.44,overcast clouds
Takoradi,GH,4.8845,-1.7554,75.81,75,92,7.31,overcast clouds
Narsaq,GL,60.9167,-46.05,57.42,93,100,1.97,light rain
Esperance,AU,-33.8667,121.9,48.04,90,0,8.68,clear sky
Avarua,CK,-21.2078,-159.775,73.45,64,75,6.91,broken clouds
Moree,AU,-29.4667,149.85,44.62,93,1,4.61,clear sky
Leshukonskoye,RU,64.8989,45.7622,58.62,99,70,5.17,broken clouds
Naron,ES,43.5167,-8.1528,65.25,82,97,12.57,overcast clouds
Geraldton,AU,-28.7667,114.6,55.81,76,73,9.22,broken clouds
Ialibu,PG,-6.2821,143.9935,56.01,99,100,1.41,overcast clouds
Skole,UA,49.0372,23.5135,56.03,75,90,0.85,overcast clouds
Bambous Virieux,MU,-20.3428,57.7575,71.22,73,75,10.36,broken clouds
Bardiyah,LY,31.7561,25.0865,80.37,79,0,12.68,clear sky
Kulhudhuffushi,MV,6.6221,73.07,80.92,76,100,11.25,overcast clouds
Rudnogorsk,RU,57.2639,103.7519,54.61,70,100,1.79,overcast clouds
Capim Grosso,BR,-11.3811,-40.0128,79.95,32,4,15.55,clear sky
Norman Wells,CA,65.282,-126.8329,50.25,92,100,8.05,overcast clouds
Champerico,GT,14.3,-91.9167,88.36,72,16,6.8,few clouds
Roura,GF,4.7263,-52.3274,87.71,70,75,11.5,broken clouds
Petropavlovsk-Kamchatskiy,RU,53.0452,158.6483,48.79,87,0,11.18,clear sky
Bonavista,CA,48.6499,-53.1147,68.76,78,51,5.48,broken clouds
Alofi,NU,-19.0595,-169.9187,76.89,73,40,11.5,scattered clouds
Atuona,PF,-9.8,-139.0333,77.68,72,1,13.35,clear sky
Lasa,IT,46.6166,10.7002,64.31,89,4,1.36,clear sky
Arraial Do Cabo,BR,-22.9661,-42.0278,73.26,83,0,20.71,clear sky
Tiksi,RU,71.6872,128.8694,53.33,75,100,6.87,overcast clouds
Yulara,AU,-25.2406,130.9889,40.84,45,0,5.75,clear sky
Kaitangata,NZ,-46.2817,169.8464,37.0,77,95,7.36,overcast clouds
East London,ZA,-33.0153,27.9116,60.3,72,35,9.64,scattered clouds
Pisco,PE,-13.7,-76.2167,64.02,88,75,9.22,broken clouds
Port Elizabeth,ZA,-33.918,25.5701,55.09,83,75,11.81,broken clouds
Worthington,US,40.0931,-83.018,86.22,68,75,9.22,broken clouds
Hambantota,LK,6.1241,81.1185,78.39,78,100,16.93,overcast clouds
Provideniya,RU,64.3833,-173.3,42.91,75,90,11.18,light rain
Idlib,SY,35.9306,36.6339,78.19,77,0,11.3,clear sky
Methoni,GR,36.8197,21.7049,83.21,88,0,12.95,clear sky
San Quintin,MX,30.4833,-115.95,77.0,64,12,11.34,few clouds
Vanimo,PG,-2.6741,141.3028,75.74,90,89,5.32,overcast clouds
Arlit,NE,18.7369,7.3853,92.28,34,94,14.76,overcast clouds
Karang Tengah,ID,-7.5787,111.8642,74.46,83,100,8.86,overcast clouds
Mahebourg,MU,-20.4081,57.7,71.26,73,75,10.36,broken clouds
Hermanus,ZA,-34.4187,19.2345,53.91,83,100,4.41,light rain
Yenagoa,NG,4.9247,6.2642,73.06,93,100,3.18,overcast clouds
Mount Isa,AU,-20.7333,139.5,58.77,26,0,5.75,clear sky
Taltal,CL,-25.4,-70.4833,64.78,71,24,5.14,few clouds
Aklavik,CA,68.2191,-135.0107,42.8,93,90,5.75,light intensity drizzle
Puerto Ayora,EC,-0.7393,-90.3518,80.56,79,55,8.01,broken clouds
Mafeteng,LS,-29.823,27.2374,46.22,41,1,3.51,clear sky
Knysna,ZA,-34.0363,23.0471,53.98,93,100,9.31,light rain
Vytegra,RU,61.0064,36.4481,61.9,87,81,6.76,broken clouds
Luderitz,NA,-26.6481,15.1594,55.74,91,0,9.08,clear sky
Isangel,VU,-19.55,169.2667,73.2,84,89,11.65,overcast clouds
Yellowknife,CA,62.456,-114.3525,61.81,56,100,16.22,overcast clouds
Brae,GB,60.3964,-1.353,51.71,84,10,13.67,clear sky
Launceston,AU,-41.45,147.1667,46.04,97,90,4.61,overcast clouds
Iqaluit,CA,63.7506,-68.5145,41.2,97,100,1.34,light rain
Freeport,US,40.6576,-73.5832,85.44,84,90,5.99,overcast clouds
Rawson,AR,-43.3002,-65.1023,63.01,26,5,23.89,clear sky
Salalah,OM,17.0151,54.0924,77.09,100,90,6.91,overcast clouds
Villa Maria,AR,-32.4075,-63.2402,86.04,26,2,8.52,clear sky
Hithadhoo,MV,-0.6,73.0833,80.83,76,15,7.09,few clouds
Havoysund,NO,70.9963,24.6622,50.88,92,100,30.94,light rain
Phaltan,IN,17.9833,74.4333,72.95,84,100,5.64,moderate rain
Deloraine,AU,-41.5333,146.6667,43.59,93,77,2.26,broken clouds
Caravelas,BR,-17.7125,-39.2481,73.18,76,8,8.39,clear sky
Sao Filipe,CV,14.8961,-24.4956,78.58,86,100,4.12,overcast clouds
Namwala,ZM,-15.7504,26.4384,70.32,32,0,4.81,clear sky
Gondal,IN,21.9667,70.8,77.29,78,100,7.52,overcast clouds
Nikolskoye,RU,59.7035,30.7861,64.02,69,66,11.7,broken clouds
Sitka,US,57.0531,-135.33,57.09,94,90,6.91,mist
Kruisfontein,ZA,-34.0033,24.7314,52.88,87,51,6.58,broken clouds
Castro,BR,-24.7911,-50.0119,76.77,47,0,0.67,clear sky
Chara,RU,56.9064,118.2631,55.38,97,100,2.98,moderate rain
Bandarbeyla,SO,9.4942,50.8122,75.33,86,99,31.56,overcast clouds
Lagoa,PT,39.05,-27.9833,73.63,87,7,14.47,clear sky
Lima,PE,-12.0432,-77.0282,66.9,73,90,8.05,overcast clouds
Ponta Do Sol,PT,32.6667,-17.1,76.12,58,0,3.89,clear sky
Manosque,FR,43.8288,5.7869,71.91,58,0,0.45,clear sky
Bure,ET,10.7,37.0667,57.76,95,95,3.09,light rain
Thompson,CA,55.7435,-97.8558,57.36,54,75,12.66,broken clouds
Codrington,AU,-38.2667,141.9667,42.22,92,8,8.72,clear sky
Sao Joao Da Barra,BR,-21.6403,-41.0511,75.29,83,0,20.54,clear sky
Jalu,LY,29.0331,21.5482,87.73,28,0,15.57,clear sky
Mar Del Plata,AR,-38.0023,-57.5575,51.82,100,90,8.05,fog
Dangara,IN,29.6799,75.8931,85.35,54,32,6.24,scattered clouds
Dodoma,TZ,-6.1722,35.7395,67.05,63,63,11.52,broken clouds
Barstow,US,34.8986,-117.0228,95.99,27,0,21.09,clear sky
Ribeira Grande,PT,38.5167,-28.7,75.6,83,40,11.5,scattered clouds
Vysokogornyy,RU,50.1167,139.15,55.02,89,17,1.43,few clouds
Vaini,TO,-21.2,-175.2,73.56,94,75,8.05,light rain
Cape Town,ZA,-33.9258,18.4232,55.11,81,92,4.0,overcast clouds
Pemberton,CA,50.3164,-122.8027,73.09,30,92,1.81,overcast clouds
Husavik,IS,66.0449,-17.3389,53.51,76,56,4.59,broken clouds
Denpasar,ID,-8.65,115.2167,78.46,83,20,5.75,few clouds
Souillac,MU,-20.5167,57.5167,71.37,73,75,10.36,broken clouds
Biak,ID,-0.9131,122.8766,74.8,86,44,6.06,scattered clouds
Sangar,RU,63.9242,127.4739,50.2,99,100,3.71,light rain
Angoram,PG,-4.0625,144.0661,71.62,99,50,2.53,scattered clouds
Patitirion,GR,39.15,23.8667,77.38,65,5,5.57,clear sky
Hauterive,FR,46.0901,3.4459,63.36,86,68,1.9,broken clouds
Wahpeton,US,46.2652,-96.6059,93.02,21,0,17.38,clear sky
Kaeo,NZ,-35.1,173.7833,51.33,86,13,5.26,few clouds
Adelaide,AU,-34.9333,138.6,54.3,69,0,9.22,clear sky
Luneburg,DE,53.25,10.4,63.12,84,17,8.52,few clouds
Alice Springs,AU,-23.7,133.8833,38.75,52,0,0.0,clear sky
Dandong,CN,40.1292,124.3947,65.37,92,1,2.82,clear sky
Gornopravdinsk,RU,60.05,69.9,58.8,79,100,3.98,overcast clouds
Ambon,ID,-3.6954,128.1814,73.54,100,40,8.05,scattered clouds
Sao Desiderio,BR,-12.3633,-44.9733,88.32,18,27,9.95,scattered clouds
Sept-Iles,CA,50.2001,-66.3821,74.05,69,43,1.99,scattered clouds
Pangnirtung,CA,66.1451,-65.7125,48.2,87,90,2.3,overcast clouds
Katsuura,JP,35.1333,140.3,78.91,90,6,15.75,clear sky
Gayeri,BF,12.6497,0.4931,74.39,85,80,7.38,broken clouds
Port Hardy,CA,50.6996,-127.4199,57.2,85,96,9.75,overcast clouds
Severo-Kurilsk,RU,50.6789,156.125,54.77,92,20,10.74,few clouds
Kutum,SD,14.2,24.6667,83.35,37,75,5.99,broken clouds
Egvekinot,RU,66.3167,-179.1667,37.6,92,100,1.01,overcast clouds
Miandrivazo,MG,-19.5167,45.4667,69.87,63,0,1.66,clear sky
Avsyunino,RU,55.5652,39.1232,65.79,95,92,3.83,light rain
Muzhi,RU,65.3667,64.6667,44.67,76,12,7.85,few clouds
Kahului,US,20.8947,-156.47,83.46,74,40,6.91,scattered clouds
Sompeta,IN,18.9333,84.6,80.96,87,100,13.44,overcast clouds
Saskylakh,RU,71.9167,114.0833,49.75,84,94,7.58,overcast clouds
Cap Malheureux,MU,-19.9842,57.6142,71.47,70,98,7.0,overcast clouds
Mae Sot,TH,16.7167,98.5667,72.61,98,100,2.1,overcast clouds
Belaya Gora,RU,68.5333,146.4167,52.32,60,99,3.49,overcast clouds
San Andres,CO,12.5847,-81.7006,89.62,66,20,6.91,few clouds
Georgetown,MY,5.4112,100.3354,75.15,92,40,3.44,scattered clouds
Yerbogachen,RU,61.2767,108.0108,58.55,71,100,3.94,overcast clouds
Cidreira,BR,-30.1811,-50.2056,66.04,90,62,15.12,broken clouds
Narasaraopet,IN,16.25,80.0667,79.88,79,100,5.19,overcast clouds
Sao Paulo De Olivenca,BR,-3.3783,-68.8725,90.59,48,88,2.51,overcast clouds
Port Blair,IN,11.6667,92.75,80.53,79,87,12.03,overcast clouds
Laguna,US,38.421,-121.4238,86.29,28,90,6.91,haze
Emerald,AU,-23.5333,148.1667,51.8,79,1,6.85,clear sky
Ban Tak,TH,17.0432,99.0813,74.53,93,88,4.9,overcast clouds
Upernavik,GL,72.7868,-56.1549,43.72,78,99,2.51,overcast clouds
Qaanaaq,GL,77.484,-69.3632,41.76,73,24,0.72,few clouds
Valdivia,CL,-39.8142,-73.2459,51.89,78,81,5.73,broken clouds
Markapur,IN,15.7333,79.2833,81.95,66,100,11.83,overcast clouds
Soyo,AO,-6.1349,12.3689,73.29,88,0,9.1,clear sky
Bathsheba,BB,13.2167,-59.5167,80.06,93,75,21.85,broken clouds
Cockburn Town,TC,21.4612,-71.1419,85.96,70,40,11.5,scattered clouds
Faanui,PF,-16.4833,-151.75,77.05,69,90,27.0,overcast clouds
Finschhafen,PG,-6.6024,147.8681,77.16,81,7,7.43,clear sky
Ayr,GB,55.4627,-4.6339,58.21,82,75,11.5,broken clouds
Tomatlan,MX,19.9333,-105.25,91.56,61,56,7.45,broken clouds
Puerto Escondido,MX,15.85,-97.0667,88.63,58,20,9.22,few clouds
Iskateley,RU,67.6803,53.1512,43.66,85,99,7.96,overcast clouds
Cabra,ES,37.4725,-4.4421,85.44,49,0,1.99,clear sky
Kedougou,SN,12.5579,-12.1743,75.78,94,75,2.3,thunderstorm with rain
Kaduna,NG,10.5222,7.4383,69.42,97,100,10.56,moderate rain
Itarema,BR,-2.9248,-39.9167,81.0,66,69,17.69,broken clouds
Fort Saint James,CA,54.4333,-124.25,66.15,52,100,4.97,light rain
Colac,AU,-38.3333,143.5833,42.84,90,23,2.59,few clouds
Outjo,NA,-20.1167,16.15,60.19,16,0,7.63,clear sky
Sydney,AU,-33.8679,151.2073,48.58,89,0,1.01,clear sky
Lavrentiya,RU,65.5833,-171.0,41.65,63,100,3.22,overcast clouds
Ancud,CL,-41.8697,-73.8203,45.93,84,100,15.26,light rain
Makinsk,KZ,52.6292,70.4169,56.01,77,100,7.49,overcast clouds
Zhangjiakou,CN,40.81,114.8794,65.03,95,97,5.84,moderate rain
Wenling,CN,28.3669,121.36,74.35,88,100,0.94,light rain
Shihezi,CN,44.3,86.0333,70.45,41,0,3.13,clear sky
Sao Jose Da Coroa Grande,BR,-8.8978,-35.1478,75.69,78,10,10.8,clear sky
Albanel,CA,48.8832,-72.4487,85.98,45,42,8.05,scattered clouds
Boke,GN,10.9409,-14.2967,73.9,97,100,7.09,light rain
Gweta,BW,-20.1833,25.2333,69.94,24,0,6.93,clear sky
Sibolga,ID,1.7427,98.7792,73.99,97,100,5.64,light rain
Tinskoy,RU,56.1525,96.9161,53.42,81,44,3.13,scattered clouds
Bemidji,US,47.4736,-94.8803,96.15,35,40,14.97,scattered clouds
Ogdensburg,US,44.6942,-75.4863,85.01,80,20,8.05,few clouds
Korla,CN,41.7597,86.1469,73.56,27,0,9.73,clear sky
Manavalakurichi,IN,8.1333,77.3,78.89,88,100,15.5,overcast clouds
Aragarcas,BR,-15.8975,-52.2508,95.65,21,0,3.44,clear sky
Totness,SR,5.8833,-56.3167,82.53,79,22,6.62,few clouds
Touros,BR,-5.1989,-35.4608,79.7,70,0,21.25,clear sky
Pevek,RU,69.7008,170.3133,41.18,74,3,10.83,clear sky
Cururupu,BR,-1.8283,-44.8683,83.88,66,30,3.83,scattered clouds
Nishihara,JP,26.1842,127.7558,80.65,97,40,6.91,scattered clouds
Bukama,CD,-9.2,25.85,78.94,32,2,3.09,clear sky
Marystown,CA,47.1666,-55.1483,70.93,69,17,14.41,few clouds
Margate,GB,51.3813,1.3862,67.86,76,11,1.01,few clouds
Klaksvik,FO,62.2266,-6.589,50.92,88,14,13.42,few clouds
San Policarpo,PH,12.1791,125.5072,77.95,88,42,3.06,scattered clouds
Mehamn,NO,71.0357,27.8492,50.18,81,75,10.36,light intensity shower rain
Manicore,BR,-5.8092,-61.3003,89.55,58,0,3.44,clear sky
Daru,PG,-9.0763,143.2092,76.37,81,81,14.14,broken clouds
Tucuma,BR,-0.1833,-50.05,85.12,69,17,7.09,few clouds
Torbay,CA,47.6666,-52.7314,81.88,60,13,14.81,few clouds
Paragominas,BR,-2.9667,-47.4833,94.14,32,69,3.58,broken clouds
Carnarvon,AU,-24.8667,113.6333,55.47,79,0,6.91,clear sky
Tottori,JP,35.5,134.2333,74.05,91,100,3.15,overcast clouds
Samarai,PG,-10.6167,150.6667,78.06,83,41,11.99,scattered clouds
Mineiros,BR,-17.5694,-52.5511,90.37,16,0,10.76,clear sky
Imbituba,BR,-28.24,-48.6703,71.49,94,100,4.03,overcast clouds
Kavieng,PG,-2.5744,150.7967,80.71,73,100,3.8,overcast clouds
Namatanai,PG,-3.6667,152.4333,78.84,80,43,4.61,scattered clouds
Porto Santo,PT,33.072,-16.3415,75.11,88,20,11.5,few clouds
Moron,AR,-34.6534,-58.6198,70.05,80,25,4.0,scattered clouds
Mangrul Pir,IN,20.3167,77.35,72.28,97,100,8.32,heavy intensity rain
San Jose,US,37.3394,-121.895,83.77,50,90,6.91,smoke
Tasiilaq,GL,65.6145,-37.6368,44.76,81,97,1.48,overcast clouds
Varhaug,NO,58.6147,5.6457,56.89,75,34,23.58,scattered clouds
Belmonte,BR,-15.8631,-38.8828,73.9,77,100,11.72,overcast clouds
Houston,US,29.7633,-95.3633,89.94,79,90,5.75,overcast clouds
Lodja,CD,-3.4833,23.4333,79.41,60,62,5.35,broken clouds
Kotturu,IN,14.8167,76.2167,70.41,89,100,14.58,overcast clouds
Namibe,AO,-15.1961,12.1522,62.26,81,0,5.99,clear sky
Zabrani,RO,46.0667,21.55,66.16,50,1,6.46,light rain
Sukhobezvodnoye,RU,57.0491,44.8891,69.71,68,10,4.92,clear sky
Douglas,US,41.3,-96.167,86.86,65,75,11.5,broken clouds
Port Lincoln,AU,-34.7333,135.8667,52.99,59,66,10.36,broken clouds
Tygda,RU,53.1167,126.3333,63.59,97,100,6.11,overcast clouds
Pozo Colorado,PY,-23.4923,-58.7972,101.61,14,0,12.88,clear sky
Mao,ES,39.8885,4.2658,75.76,78,40,2.3,scattered clouds
Barguzin,RU,53.6167,109.6167,54.05,96,95,5.14,overcast clouds
Road Town,VG,18.4167,-64.6167,86.2,79,40,16.11,scattered clouds
Seybaplaya,MX,19.65,-90.6667,92.66,63,90,13.65,overcast clouds
Smithers,CA,54.7804,-127.1743,59.32,67,90,6.91,overcast clouds
Sioux Lookout,CA,50.1001,-91.917,91.47,46,40,6.91,scattered clouds
Fairmont,US,39.4851,-80.1426,74.79,95,100,11.16,overcast clouds
Vasvar,HU,47.0493,16.7995,59.81,62,0,4.36,clear sky
Vila Velha,BR,-20.3297,-40.2925,75.15,78,40,10.36,scattered clouds
Vao,NC,-22.6667,167.4833,68.74,77,92,16.11,overcast clouds
Khandbari,NP,27.3747,87.2039,72.16,95,100,1.9,overcast clouds
Bethel,US,41.3712,-73.414,82.49,81,75,8.05,broken clouds
Kumluca,TR,36.3703,30.2869,82.54,57,0,4.97,clear sky
Atasu,KZ,48.6814,71.6433,69.98,38,0,7.07,clear sky
Alamogordo,US,32.8995,-105.9603,88.95,49,20,11.5,few clouds
Padang,ID,-0.9492,100.3543,74.89,95,100,7.25,moderate rain
Lompoc,US,34.6391,-120.4579,82.78,77,90,10.36,overcast clouds
Leningradskiy,RU,69.3833,178.4167,42.69,70,22,4.54,few clouds
Bayji,IQ,34.9311,43.487,92.86,17,0,9.73,clear sky
Nanortalik,GL,60.1432,-45.2371,49.71,83,100,15.52,overcast clouds
Dingle,PH,10.9995,122.6711,75.43,90,2,2.37,light rain
Saldanha,ZA,-33.0117,17.9442,51.85,88,26,12.91,light rain
Assiniboia,CA,49.6334,-105.9845,60.62,55,100,12.66,overcast clouds
Tabou,CI,4.423,-7.3528,76.06,73,5,6.98,clear sky
Scottsbluff,US,41.8666,-103.6672,99.79,26,1,6.91,clear sky
Mitsamiouli,KM,-11.3847,43.2844,76.24,75,14,4.36,few clouds
Ostrovnoy,RU,68.0531,39.5131,53.31,97,100,19.75,overcast clouds
Pringsewu,ID,-5.3582,104.9744,71.38,96,85,2.26,overcast clouds
Mogadishu,SO,2.0371,45.3438,76.26,81,79,22.35,broken clouds
Vila Franca Do Campo,PT,37.7167,-25.4333,75.61,78,18,4.7,few clouds
Kalmunai,LK,7.4167,81.8167,80.76,72,100,6.64,overcast clouds
Chokurdakh,RU,70.6333,147.9167,50.41,61,100,6.62,overcast clouds
Olinda,BR,-8.0089,-34.8553,74.93,73,40,13.8,scattered clouds
Itoman,JP,26.1247,127.6694,81.37,96,75,9.22,broken clouds
Khatanga,RU,71.9667,102.5,43.83,74,100,6.4,overcast clouds
Bumbuna,SL,9.05,-11.7333,71.19,99,100,2.44,light rain
Dubbo,AU,-32.25,148.6167,39.33,87,40,8.05,scattered clouds
Yankton,US,42.8711,-97.3973,89.85,45,1,17.27,clear sky
Ahipara,NZ,-35.1667,173.1667,52.68,68,19,10.25,few clouds
Qaqortoq,GL,60.7167,-46.0333,57.7,89,100,5.28,overcast clouds
Sungairaya,ID,0.7,108.9,74.59,91,100,5.19,overcast clouds
Lubango,AO,-14.9172,13.4925,62.89,33,0,4.7,clear sky
Nuuk,GL,64.1835,-51.7216,48.81,100,90,14.97,light snow
Anito,PH,12.4497,125.2886,77.27,91,42,2.64,scattered clouds
Piacabucu,BR,-10.4056,-36.4344,74.8,77,4,12.3,clear sky
Quatre Cocos,MU,-20.2078,57.7625,71.1,73,100,14.45,light rain
Kununurra,AU,-15.7667,128.7333,57.18,77,5,1.14,clear sky
Abu Samrah,SY,35.3029,37.1841,75.67,68,0,12.75,clear sky
Arman,RU,59.7,150.1667,53.02,94,96,3.31,overcast clouds
Sosva,RU,59.1766,61.8558,59.94,77,100,4.16,overcast clouds
Port-Gentil,GA,-0.7193,8.7815,76.51,81,100,16.11,overcast clouds
San Patricio,US,28.017,-97.5169,98.58,47,100,17.18,overcast clouds
Porto Belo,BR,-27.1578,-48.5531,76.78,88,36,7.2,scattered clouds
Mnogovershinnyy,RU,53.9353,139.9242,64.31,74,75,2.42,broken clouds
Bhachau,IN,23.2833,70.35,83.39,59,100,14.47,overcast clouds
Ust-Uda,RU,54.1742,103.0304,56.14,76,90,3.58,overcast clouds
San Vicente,AR,-26.6167,-54.1333,88.2,23,0,5.55,clear sky
Tonj,SS,7.2737,28.6822,73.09,86,1,4.16,clear sky
Peniche,PT,39.3558,-9.3811,66.29,89,1,17.98,clear sky
Praia,CV,14.9215,-23.5087,79.34,78,75,10.36,broken clouds
Dwarka,IN,22.2394,68.9678,81.21,74,96,9.93,overcast clouds
Kirishi,RU,59.4471,32.0205,59.58,74,25,9.13,scattered clouds
Noshiro,JP,40.2039,140.0242,69.82,88,95,4.85,overcast clouds
Whitehorse,CA,60.7161,-135.0538,55.09,66,90,11.5,overcast clouds
Nadym,RU,65.5333,72.5167,45.03,76,62,10.69,broken clouds
Jawhar,SO,2.7809,45.5005,74.5,73,66,20.98,broken clouds
Labuhan,ID,-6.8844,112.2051,76.6,81,100,11.41,overcast clouds
Santa Maria Do Suacui,BR,-18.1903,-42.4142,75.83,46,36,7.2,scattered clouds
Jutai,BR,-5.1833,-68.9,95.38,35,87,1.36,overcast clouds
Venado Tuerto,AR,-33.7456,-61.9688,75.76,44,97,2.82,overcast clouds
Marana,US,32.4367,-111.2254,94.05,46,40,11.5,scattered clouds
Mutoko,ZW,-17.397,32.2268,57.61,56,0,2.8,clear sky
Olutanga,PH,7.3106,122.8464,81.52,75,70,1.32,broken clouds
Paamiut,GL,61.994,-49.6678,45.79,93,100,20.04,light rain
Huarmey,PE,-10.0681,-78.1522,69.04,70,5,12.71,clear sky
Penzance,GB,50.1186,-5.5371,58.77,83,100,13.02,overcast clouds
Bilma,NE,18.6853,12.9164,95.27,26,87,8.9,overcast clouds
Tacuati,PY,-23.45,-56.5833,101.12,13,0,6.15,clear sky
Erenhot,CN,43.6475,111.9767,75.2,42,0,12.12,clear sky
Kirakira,SB,-10.4544,161.9205,78.42,85,20,6.71,few clouds
Broken Hill,AU,-31.95,141.4333,48.96,63,2,7.05,clear sky
Aksha,RU,50.2814,113.2867,55.81,88,100,9.17,overcast clouds
Ambagarh Chauki,IN,20.7833,80.7167,75.52,93,100,5.32,overcast clouds
Sheltozero,RU,61.3667,35.3667,60.48,77,97,9.86,overcast clouds
Matara,LK,5.9485,80.5353,76.19,89,100,12.3,overcast clouds
Hovd,MN,48.0056,91.6419,56.21,61,7,3.87,clear sky
Loa Janan,ID,-0.583,117.095,73.04,99,90,2.17,overcast clouds
Birao,CF,10.2849,22.7882,72.14,97,100,4.52,moderate rain
Beian,NO,63.6559,9.5683,55.49,88,75,21.85,broken clouds
Evensk,RU,61.95,159.2333,50.11,92,99,1.52,overcast clouds
Muros,ES,42.7762,-9.0603,64.9,76,100,15.23,overcast clouds
Nouadhibou,MR,20.931,-17.0347,75.18,94,45,11.5,scattered clouds
Kefamenanu,ID,-9.4467,124.4781,67.3,90,43,3.22,scattered clouds
Salmon Creek,US,45.7107,-122.649,80.15,54,1,9.22,clear sky
Adrar,MR,20.5022,-10.0711,92.32,34,100,14.61,overcast clouds
Cehegin,ES,38.0924,-1.7985,74.28,67,19,6.22,few clouds
Fortuna,US,40.5982,-124.1573,87.42,61,1,5.01,clear sky
Usinsk,RU,65.9939,57.5281,43.03,81,57,1.52,broken clouds
Waddan,LY,29.1614,16.139,92.21,16,0,7.05,clear sky
Atar,MR,20.5169,-13.0499,96.87,31,12,7.76,few clouds
Sorland,NO,67.667,12.6934,51.87,93,100,22.21,light rain
Batagay,RU,67.6333,134.6333,56.46,79,100,2.17,overcast clouds
Hibbing,US,47.4272,-92.9377,90.59,42,75,10.36,broken clouds
Necochea,AR,-38.5473,-58.7368,60.04,67,100,2.48,light rain
Den Helder,NL,52.9599,4.7593,64.38,83,90,13.8,overcast clouds
Savannakhet,LA,16.566,104.751,78.66,75,11,2.51,few clouds
Kokopo,PG,-4.352,152.2633,75.54,83,13,6.42,few clouds
Hasaki,JP,35.7333,140.8333,77.4,89,0,17.0,clear sky
Cabadiangan,PH,9.7531,122.4739,76.84,82,27,2.66,scattered clouds
Ilfracombe,GB,51.2093,-4.1134,59.32,85,100,5.01,overcast clouds
Miraflores,MX,19.2167,-98.8083,72.36,66,76,0.6,broken clouds
Sokoto,NG,13.0609,5.239,80.44,70,14,8.5,few clouds
Pyay,MM,18.8167,95.2167,74.39,93,100,3.6,overcast clouds
Usogorsk,RU,63.4106,48.6872,63.88,98,94,7.23,overcast clouds
Port Pirie,AU,-33.1833,138.0167,41.09,51,89,5.75,overcast clouds
Aripuana,BR,-9.1667,-60.6333,99.01,16,0,5.03,clear sky
Andros Town,BS,24.7,-77.7667,89.56,63,37,14.09,scattered clouds
Buenos Aires,AR,-34.6132,-58.3772,70.03,94,40,11.5,mist
Taoudenni,ML,22.6783,-3.9836,91.65,38,64,19.77,broken clouds
Batagay-Alyta,RU,67.8006,130.4114,51.89,70,99,2.44,overcast clouds
Asau,RO,46.4333,26.4,60.76,98,100,1.88,light rain
Tarpon Springs,US,28.1461,-82.7568,98.29,62,1,3.0,clear sky
Windhoek,NA,-22.5594,17.0832,56.1,19,0,4.32,clear sky
Brownwood,US,31.7093,-98.9912,87.8,58,40,11.5,scattered clouds
Kamina,CD,-8.7386,24.9906,75.94,30,65,1.23,broken clouds
Wajima,JP,37.4,136.9,73.29,92,100,5.73,overcast clouds
Port Arthur,CN,38.8,121.2667,77.92,34,4,10.8,clear sky
Nkhata Bay,MW,-11.6066,34.2907,69.51,67,0,3.69,clear sky
Zhanakorgan,KZ,43.9098,67.2495,77.99,25,0,9.82,clear sky
Oktyabrskiy,RU,54.4815,53.471,71.91,43,5,1.74,clear sky
Puri,IN,19.8,85.85,81.12,81,94,20.69,overcast clouds
Heihe,CN,50.2441,127.4902,63.18,88,100,5.37,overcast clouds
Conde,BR,-7.2597,-34.9075,78.26,73,40,14.97,scattered clouds
Magistralnyy,RU,56.1725,107.4458,55.11,95,100,4.32,light rain
Lincoln,US,40.8,-96.667,89.51,45,20,12.66,few clouds
Baturaja,ID,-4.1333,104.1667,72.66,88,85,1.95,overcast clouds
High Level,CA,58.5169,-117.136,62.71,67,90,2.3,overcast clouds
Guerrero Negro,MX,27.9769,-114.0611,83.32,50,0,9.91,clear sky
Havelock,US,34.8791,-76.9013,89.55,80,99,7.0,overcast clouds
Yar-Sale,RU,66.8333,70.8333,46.49,72,95,10.71,overcast clouds
Port Macquarie,AU,-31.4333,152.9167,42.76,100,11,3.44,few clouds
Hamilton,US,39.1834,-84.5333,90.95,61,75,3.0,broken clouds
Moctezuma,MX,29.8,-109.6667,89.46,44,34,9.73,scattered clouds
Marsa Matruh,EG,31.3525,27.2453,79.47,81,0,10.71,clear sky
Roma,US,43.2128,-75.4557,78.12,88,90,0.0,light rain
Alyangula,AU,-13.8483,136.4192,62.47,94,75,2.3,broken clouds
Lokosovo,RU,61.1333,74.8167,54.81,65,100,3.89,overcast clouds
Kudahuvadhoo,MV,2.6708,72.8944,81.37,75,87,8.59,overcast clouds
Praia Da Vitoria,PT,38.7333,-27.0667,76.75,89,14,7.36,few clouds
Ketchikan,US,55.3422,-131.6461,57.67,100,90,10.36,light rain
Airai,TL,-8.9266,125.4092,55.13,79,43,2.71,scattered clouds
Mana,GF,5.6592,-53.7767,83.23,74,10,10.02,clear sky
Chigorodo,CO,7.6664,-76.6811,83.64,73,100,1.21,overcast clouds
Sola,VU,-13.8833,167.55,79.16,80,33,14.36,scattered clouds
Khoy,IR,38.5504,44.9535,75.54,28,17,2.08,few clouds
Tukrah,LY,32.5341,20.5791,81.18,82,0,4.29,clear sky
Finote Selam,ET,10.7,37.2667,59.18,95,100,1.83,light rain
Rocha,UY,-34.4833,-54.3333,69.73,83,84,7.94,broken clouds
Kanniyakumari,IN,8.0833,77.5667,77.61,86,100,19.73,overcast clouds
Mahajanga,MG,-15.7167,46.3167,75.22,60,20,3.44,few clouds
Hofn,IS,64.2539,-15.2082,52.57,91,100,7.85,overcast clouds
Porto Velho,BR,-8.7619,-63.9039,95.05,29,4,9.22,clear sky
Troitsko-Pechorsk,RU,62.7084,56.1964,57.96,82,100,3.56,overcast clouds
Svetlogorsk,BY,52.6333,29.7333,58.87,66,86,6.22,overcast clouds
Akkermanovka,RU,51.2467,58.2391,73.18,26,58,2.24,broken clouds
Tamiahua,MX,21.2667,-97.45,91.09,59,3,15.12,clear sky
Ballina,AU,-28.8667,153.5667,50.77,81,64,4.18,broken clouds
Niteroi,BR,-22.8833,-43.1036,85.89,64,0,9.22,clear sky
Hudson Bay,CA,52.85,-102.3842,67.71,42,100,5.77,overcast clouds
Olafsvik,IS,64.8945,-23.7142,54.77,90,100,1.52,overcast clouds
Mundra,IN,22.85,69.7333,81.7,70,96,12.71,overcast clouds
Hearst,CA,49.6835,-83.6665,86.25,39,8,7.81,clear sky
Flinders,AU,-34.5833,150.8552,46.26,82,85,1.01,overcast clouds
Orlik,RU,52.5178,99.825,46.98,92,83,2.39,broken clouds
El Calvario,GT,14.1167,-89.9167,84.92,69,100,2.66,overcast clouds
Comarapa,BO,-17.9,-64.4833,70.18,46,3,8.88,clear sky
Te Anau,NZ,-45.4167,167.7167,41.41,95,94,7.0,overcast clouds
Bria,CF,6.5423,21.9863,69.8,99,97,4.88,light rain
Bobo Dioulasso,BF,11.1771,-4.2979,75.65,94,20,0.0,few clouds
Amalapuram,IN,16.5833,82.0167,76.93,94,100,3.87,overcast clouds
Ouesso,CG,1.6136,16.0517,73.04,89,93,2.39,light rain
Palana,RU,59.1167,159.9667,49.15,90,100,6.98,light rain
Sobolevo,RU,54.4299,31.8996,55.74,75,16,5.14,few clouds
Puno,PE,-15.8333,-70.0333,55.9,18,1,10.31,clear sky
Altay,CN,47.8667,88.1167,56.03,90,25,2.06,scattered clouds
Gerash,IR,27.6652,54.1371,87.94,45,0,5.35,clear sky
Miles City,US,46.4083,-105.8406,61.77,59,90,17.27,overcast clouds
Ardahan,TR,41.1087,42.7022,56.75,79,27,4.07,scattered clouds
Jamsa,FI,61.8642,25.19,57.92,95,100,15.73,overcast clouds
Lorengau,PG,-2.0226,147.2712,79.65,79,14,4.52,few clouds
Nesna,NO,66.1967,13.0213,52.57,92,100,1.99,light rain
Santa Cruz Del Norte,CU,23.1539,-81.9236,90.21,57,97,21.81,overcast clouds
Pelym,RU,61.0108,61.9978,58.51,74,100,2.73,overcast clouds
Mayumba,GA,-3.432,10.6554,73.99,93,95,6.89,overcast clouds
Yarega,RU,63.4354,53.5765,60.08,78,100,3.89,overcast clouds
Salinas,US,36.6777,-121.6555,75.81,61,1,8.05,clear sky
Sokoni,TZ,-6.4333,39.55,75.36,76,7,11.92,clear sky
Pascagoula,US,30.3658,-88.5561,90.41,74,20,12.66,few clouds
Lufilufi,WS,-13.8745,-171.5986,76.78,83,74,19.55,light rain
Beitbridge,ZW,-22.2167,30.0,69.31,33,0,2.71,clear sky
Anadyr,RU,64.75,177.4833,46.9,87,40,11.18,light rain
Mitchell,US,43.7094,-98.0298,93.18,38,1,17.27,clear sky
Santa Fe,AR,-31.6333,-60.7,94.75,34,0,1.99,clear sky
Charters Towers,AU,-20.1,146.2667,54.91,76,100,7.27,overcast clouds
Kabalo,CD,-6.05,26.9167,85.73,33,70,3.8,broken clouds
Mabaruma,GY,8.2,-59.7833,80.11,91,100,4.45,overcast clouds
Alexandria,EG,31.2156,29.9553,81.32,55,0,9.46,clear sky
Jardim,BR,-21.4803,-56.1381,99.03,13,0,7.96,clear sky
Ati,TD,13.2154,18.3353,85.24,59,100,10.56,overcast clouds
Wuning,CN,29.2589,120.2311,71.6,94,100,2.86,overcast clouds
Larsnes,NO,62.2028,5.5773,55.6,86,100,14.27,overcast clouds
Beringovskiy,RU,63.05,179.3167,43.92,89,100,8.5,light rain
Hay River,CA,60.8156,-115.7999,62.53,55,100,10.2,overcast clouds
Hami,CN,42.8,93.45,72.28,35,0,8.75,clear sky
Mangrol,IN,21.1167,70.1167,80.49,79,100,5.37,overcast clouds
Galle,LK,6.0367,80.217,77.11,87,100,14.0,overcast clouds
Sibu,MY,2.3,111.8167,75.51,94,40,2.3,scattered clouds
Sistranda,NO,63.7256,8.834,55.36,81,100,24.81,overcast clouds
Winsford,GB,53.1833,-2.5167,61.25,89,94,1.01,overcast clouds
Tynda,RU,55.1667,124.7167,58.55,99,100,2.93,moderate rain
Kiama,AU,-34.6833,150.8667,46.45,84,88,5.68,overcast clouds
Mach,PK,29.8637,67.3298,83.37,35,0,2.01,clear sky
Jiazi,CN,22.8779,116.067,79.81,87,91,0.47,overcast clouds
Ruteng,ID,-8.6136,120.4721,59.63,94,72,1.66,broken clouds
Kismayo,SO,-0.3582,42.5454,75.67,80,47,16.93,scattered clouds
Eucaliptus,BO,-17.5833,-67.5167,61.68,13,2,6.6,clear sky
Sabzevar,IR,36.2126,57.6819,74.01,19,1,10.47,clear sky
Boysun,UZ,38.2061,67.1986,70.97,24,1,5.77,clear sky
Ixtapa,MX,20.7,-105.2,88.23,74,20,9.22,few clouds
Palmas,BR,-10.2128,-48.3603,93.07,18,0,9.22,clear sky
Kamenka,RU,51.3223,42.7678,75.78,32,95,6.31,light rain
Ullo,HU,47.3877,19.3553,62.73,77,0,2.3,clear sky
Radcliff,US,37.8404,-85.9491,87.75,67,40,0.0,light rain
Kavaratti,IN,10.5669,72.642,81.09,79,100,14.29,overcast clouds
Ulladulla,AU,-35.35,150.4667,46.09,77,100,4.54,overcast clouds
Dicabisagan,PH,17.0818,122.4157,77.97,90,100,2.51,light rain
Saint-Orens-De-Gameville,FR,43.554,1.5341,68.29,63,0,8.05,clear sky
Buala,SB,-8.145,159.5921,79.72,82,20,4.76,few clouds
Remedios,CU,22.4947,-79.5458,90.52,69,100,15.35,overcast clouds
Praxedis Guerrero,MX,31.3667,-106.0167,89.19,37,48,11.97,scattered clouds
Atherton,GB,53.5237,-2.4935,60.71,94,100,3.0,overcast clouds
Coahuayana,MX,18.7333,-103.6833,90.88,63,31,7.43,scattered clouds
Lafayette,US,30.2335,-92.0668,93.9,65,75,10.36,broken clouds
Mosquera,CO,4.7059,-74.2302,62.69,77,75,9.22,broken clouds
Ranavav,IN,21.6842,69.7408,80.89,73,100,6.53,overcast clouds
Ngudu,TZ,-2.9667,33.3333,75.45,44,92,3.85,overcast clouds
Tomter,NO,59.65,11.0,60.3,87,100,2.53,overcast clouds
Gonen,TR,40.1049,27.654,77.67,85,0,3.27,clear sky
Marquette,US,46.5333,-87.6335,86.34,57,0,2.68,clear sky
Braniewo,PL,54.3797,19.8196,64.44,64,100,20.71,moderate rain
Kasane,BW,-17.8167,25.15,65.53,32,0,5.64,clear sky
Darhan,MN,49.4867,105.9228,53.49,86,100,1.83,overcast clouds
Pareora,NZ,-44.4871,171.2132,39.69,61,58,5.37,broken clouds
Praya,CV,14.9215,-23.5087,79.34,78,75,10.36,broken clouds
Teknaf,BD,20.8624,92.3058,75.85,94,100,8.63,moderate rain
Vostok,RU,46.4856,135.8833,56.1,77,0,3.56,clear sky
Juliaca,PE,-15.5,-70.1333,60.06,15,2,14.16,clear sky
Fairbanks,US,64.8378,-147.7164,49.01,85,90,3.44,overcast clouds
Staryy Nadym,RU,65.6118,72.6842,44.76,78,46,10.56,scattered clouds
Tura,IN,25.5198,90.2201,73.06,98,100,7.25,overcast clouds
Canutama,BR,-6.5339,-64.3831,98.56,27,93,3.67,overcast clouds
Harper,LR,4.375,-7.7169,76.32,73,18,6.53,few clouds
Minas De Barroteran,MX,27.6333,-101.2833,95.97,36,87,7.29,overcast clouds
Riberalta,BO,-10.9833,-66.1,91.6,55,40,11.5,smoke
Cairns,AU,-16.9167,145.7667,62.55,88,24,9.22,few clouds
Los Llanos De Aridane,ES,28.6585,-17.9182,74.95,57,0,14.97,clear sky
Abu Dhabi,AE,24.4667,54.3667,96.91,66,0,4.61,clear sky
Kamaishi,JP,39.2667,141.8833,69.53,91,15,6.53,few clouds
Xochihuehuetlan,MX,17.9167,-98.4333,85.77,48,99,1.81,overcast clouds
Carndonagh,IE,55.25,-7.2667,58.62,94,100,3.6,overcast clouds
Zhangye,CN,38.9342,100.4517,71.06,46,69,5.41,broken clouds
Thinadhoo,MV,0.5333,72.9333,81.41,73,12,8.23,few clouds
Kiomboi,TZ,-4.2667,34.3667,69.66,44,79,7.83,broken clouds
Sainthia,IN,23.95,87.6667,78.48,94,65,6.29,broken clouds
Mangai,CD,-4.05,19.5333,80.92,55,3,5.1,clear sky
Okhotsk,RU,59.3833,143.3,58.66,95,97,6.26,overcast clouds
Vestmannaeyjar,IS,63.4427,-20.2734,54.59,94,90,24.16,overcast clouds
Champagnole,FR,46.7445,5.9135,66.51,88,82,2.33,broken clouds
Zabaykalsk,RU,49.6333,117.3167,60.1,93,100,5.35,moderate rain
Tiznit,MA,29.5833,-9.5,79.45,33,0,3.87,clear sky
Bonfim,BR,3.0833,-59.95,84.42,69,100,6.89,overcast clouds
Kushikino,JP,31.7167,130.2667,75.99,87,42,2.73,scattered clouds
Benghazi,LY,32.1167,20.0667,82.65,73,0,8.05,clear sky
Mariental,NA,-24.6333,17.9667,55.27,29,0,7.58,clear sky
Gigmoto,PH,13.7796,124.39,79.83,81,34,0.89,scattered clouds
Valdez,EC,1.2492,-78.9831,80.98,79,12,12.28,light rain
Ahtopol,BG,42.1,27.95,72.07,82,0,5.99,clear sky
Acarau,BR,-2.8856,-40.12,81.59,65,73,19.04,broken clouds
Pilar,BR,-9.5972,-35.9567,73.33,87,63,7.83,broken clouds
Panguna,PG,-6.3164,155.4848,65.28,96,22,1.9,few clouds
Viedma,AR,-40.8135,-62.9967,64.24,36,100,15.77,overcast clouds
Verkhnevilyuysk,RU,63.4453,120.3167,47.79,96,45,2.91,scattered clouds
Chiredzi,ZW,-21.05,31.6667,69.21,41,0,5.66,clear sky
Tromso,NO,69.6496,18.957,54.25,82,75,18.41,light intensity shower rain
Grand Gaube,MU,-20.0064,57.6608,71.38,70,98,7.0,overcast clouds
Pemangkat,ID,1.1667,108.9667,76.82,85,100,10.92,overcast clouds
Watertown,US,42.3709,-71.1828,86.52,65,40,3.0,scattered clouds
Bac Lieu,VN,9.285,105.7244,80.47,79,100,6.82,overcast clouds
Vrangel,RU,42.7297,133.0839,63.68,84,100,5.03,overcast clouds
Mokhsogollokh,RU,61.4681,128.9203,53.44,87,99,1.45,overcast clouds
College,US,64.8569,-147.8028,51.46,85,75,3.44,broken clouds
Bilibino,RU,68.0546,166.4372,47.88,64,8,2.68,clear sky
Inhambane,MZ,-23.865,35.3833,67.77,86,0,13.2,clear sky
Cayenne,GF,4.9333,-52.3333,87.84,78,75,4.0,broken clouds
Plast,RU,54.3691,60.8136,67.91,46,79,3.47,broken clouds
Tanout,NE,14.9709,8.8879,89.91,38,99,5.48,overcast clouds
Sulejowek,PL,52.2522,21.269,62.91,74,2,7.27,clear sky
Barcelos,PT,41.5388,-8.6151,73.29,67,88,5.68,overcast clouds
Natal,BR,-5.795,-35.2094,79.45,73,40,21.85,scattered clouds
Funadhoo,MV,6.15,73.2667,81.07,76,100,11.43,overcast clouds
Akyab,MM,20.15,92.9,76.87,90,100,7.49,light rain
Grenfell,AU,-33.9,148.1667,40.01,87,97,3.87,overcast clouds
Butterworth,MY,5.3991,100.3638,75.25,93,40,3.44,scattered clouds
Coquimbo,CL,-29.9533,-71.3436,62.33,77,0,11.5,clear sky
Acapulco,MX,16.8634,-99.8901,89.42,66,40,6.91,scattered clouds
Pombas,CV,17.1503,-25.0201,78.58,89,27,4.25,scattered clouds
Balikpapan,ID,-1.2675,116.8289,75.6,90,94,4.83,overcast clouds
Novikovo,RU,51.1537,37.8879,79.77,32,99,4.43,overcast clouds
Castro-Urdiales,ES,43.3829,-3.2204,65.5,77,98,2.82,overcast clouds
Dawlatabad,AF,36.4141,64.9053,78.84,16,0,7.74,clear sky
Srednekolymsk,RU,67.45,153.6833,52.68,57,100,4.9,overcast clouds
Shasta Lake,US,40.6804,-122.3708,87.93,21,6,1.99,clear sky
Aykhal,RU,66.0,111.5,56.19,69,100,4.94,overcast clouds
Antalaha,MG,-14.9003,50.2788,69.13,78,91,7.36,overcast clouds
San Isidro,PE,-12.1167,-77.05,70.02,80,90,8.05,overcast clouds
Bahia Honda,CU,22.9036,-83.1592,84.02,70,94,20.36,light rain
Biltine,TD,14.5333,20.9167,76.17,79,100,25.3,overcast clouds
Qasigiannguit,GL,68.8193,-51.1922,48.45,91,100,0.6,overcast clouds
Mandan,US,46.8267,-100.8896,98.58,38,1,13.8,clear sky
Comodoro Rivadavia,AR,-45.8667,-67.5,58.86,31,20,21.85,few clouds
Tres Arroyos,AR,-38.3739,-60.2798,68.41,53,100,7.14,overcast clouds
Umea,SE,63.8284,20.2597,53.53,100,75,5.75,light intensity drizzle
Mahibadhoo,MV,3.7833,72.9667,81.84,75,100,10.63,overcast clouds
Webb City,US,37.1465,-94.463,87.8,70,90,6.91,overcast clouds
Anchorage,US,61.2181,-149.9003,60.58,86,90,0.0,overcast clouds
Gizo,SB,-8.103,156.8419,81.0,75,5,2.48,clear sky
Negrar,IT,45.5288,10.938,74.26,56,0,3.44,clear sky
Poronaysk,RU,49.2167,143.1167,58.44,92,100,2.28,overcast clouds
Jiaocheng,CN,24.6774,116.1389,73.92,98,100,0.74,overcast clouds
Saint Anthony,US,45.0205,-93.218,92.84,46,75,3.0,broken clouds
Balykshi,KZ,47.0667,51.8667,77.0,16,0,8.95,clear sky
Bondeno,IT,44.8862,11.4108,75.74,50,0,6.55,clear sky
Amahai,ID,-3.3333,128.9167,76.17,88,44,3.69,scattered clouds
Baisha,CN,26.5222,110.9311,74.41,96,27,1.03,scattered clouds
Beisfjord,NO,68.3751,17.5988,58.05,92,100,3.98,light rain
Luwuk,ID,-0.9516,122.7875,75.58,88,61,4.54,broken clouds
Sorong,ID,-0.8833,131.25,76.84,91,99,11.03,overcast clouds
Tocopilla,CL,-22.092,-70.1979,64.51,66,4,1.14,clear sky
Kulachi,PK,31.9286,70.4592,98.74,25,0,6.8,clear sky
Ipubi,BR,-7.6519,-40.1489,82.31,33,2,9.24,clear sky
Sao Felix Do Xingu,BR,-6.6447,-51.995,97.7,17,5,5.32,clear sky
Porbandar,IN,21.6422,69.6093,81.16,74,100,7.2,overcast clouds
Palmer,US,42.1584,-72.3287,83.98,67,75,1.99,broken clouds
Giraldo,CO,6.6831,-75.9892,65.21,65,99,1.63,overcast clouds
Along,IN,28.1667,94.7667,74.91,100,100,1.74,light rain
Montrose,US,38.4166,-108.2673,78.21,25,100,19.06,overcast clouds
Muroto,JP,33.2833,134.15,77.54,86,100,8.19,overcast clouds
Mackay,AU,-21.15,149.2,63.05,81,99,9.33,overcast clouds
Paka,MY,4.6374,103.4368,76.93,100,100,0.0,light rain
Severnyy,RU,50.677,36.5532,75.24,64,75,6.71,light rain
Kerteminde,DK,55.449,10.6577,60.96,80,100,25.28,overcast clouds
Mayo,US,38.8876,-76.5119,89.08,89,90,8.99,moderate rain
Haskovo,BG,41.9403,25.5694,76.62,69,97,6.78,overcast clouds
Blackwater,AU,-23.5833,148.8833,54.39,89,5,6.33,clear sky
Smidovich,RU,48.6,133.8167,61.11,74,0,3.85,clear sky
Richards Bay,ZA,-28.783,32.0377,68.18,86,87,12.8,overcast clouds
Maracas,BR,-13.4411,-40.4308,65.64,75,88,10.47,overcast clouds
Turan,VN,16.0678,108.2208,84.25,78,20,5.75,few clouds
Chongqing,CN,29.5628,106.5528,82.72,83,0,4.47,clear sky
Susangerd,IR,31.5608,48.1831,95.02,13,0,9.19,clear sky
Tadine,NC,-21.55,167.8833,70.27,75,90,14.07,overcast clouds
Kostino,RU,58.9097,53.2691,64.98,81,53,3.44,broken clouds
Hammerfest,NO,70.6634,23.6821,50.45,87,75,19.57,moderate rain
Altus,US,34.6381,-99.334,85.86,65,90,1.01,overcast clouds
Schwerin,DE,53.6294,11.4132,62.58,92,63,7.0,broken clouds
Boden,SE,65.8252,21.6886,59.0,98,97,3.2,overcast clouds
Butembo,CD,0.15,29.2833,57.34,85,15,3.15,few clouds
Karratha,AU,-20.7377,116.8463,70.05,42,0,9.08,clear sky
Athens,GR,37.9795,23.7162,83.37,64,0,1.01,clear sky
Bonthe,SL,7.5264,-12.505,77.83,80,100,7.38,overcast clouds
Straumen,NO,63.8709,11.2999,53.62,90,100,17.09,light rain
Puerto Del Rosario,ES,28.5004,-13.8627,82.15,44,0,12.66,clear sky
Arvika,SE,59.6553,12.5852,57.9,74,64,3.18,broken clouds
Asyut,EG,27.181,31.1837,85.48,27,0,8.28,clear sky
Banjarmasin,ID,-3.3244,114.591,75.34,90,98,1.63,overcast clouds
Maldonado,UY,-34.6667,-54.9167,69.22,82,100,7.81,overcast clouds
Gamba,GA,-2.65,10.0,74.35,90,98,8.03,light rain
Otane,NZ,-39.8833,176.6333,40.01,90,1,2.62,clear sky
Lebanon,US,36.2081,-86.2911,88.32,79,40,0.0,scattered clouds
Cullman,US,34.1748,-86.8436,92.44,56,40,5.01,scattered clouds
Pathein,MM,16.7833,94.7333,76.46,90,100,3.69,overcast clouds
Jumla,NP,29.2747,82.1838,61.59,95,63,0.87,moderate rain
Zhigansk,RU,66.7697,123.3711,52.09,89,100,6.67,overcast clouds
Xixiang,CN,35.1628,112.865,75.49,92,80,4.5,light rain
Panukulan,PH,14.9333,121.8144,81.25,77,98,1.54,overcast clouds
Upata,VE,8.0086,-62.3989,76.28,93,100,6.2,overcast clouds
Hobyo,SO,5.3505,48.5268,76.86,76,71,29.82,broken clouds
Hare Bay,CA,48.8499,-54.0148,87.15,42,58,5.32,broken clouds
Nehe,CN,48.4833,124.8333,63.36,95,96,7.16,overcast clouds
Sabang,ID,5.8933,95.3214,81.81,71,100,16.17,overcast clouds
Danjiangkou,CN,32.5428,111.5086,75.22,91,87,2.68,light rain
Pochutla,MX,15.7432,-96.4661,86.85,67,92,8.52,overcast clouds
Waipawa,NZ,-41.4122,175.5153,47.03,88,3,5.23,clear sky
Dargaville,NZ,-35.9333,173.8833,51.93,73,88,8.66,overcast clouds
Mumford,GH,5.2618,-0.759,74.88,83,78,7.58,broken clouds
Ilhabela,BR,-23.7781,-45.3581,73.51,77,0,3.76,clear sky
Shirakawa,JP,37.1223,140.2376,72.95,98,52,2.44,broken clouds
Banda Aceh,ID,5.5577,95.3222,78.71,78,100,10.29,overcast clouds
Temir,KZ,49.1414,57.13,80.01,20,45,9.13,scattered clouds
Pekalongan,ID,-6.8886,109.6753,76.84,83,92,5.88,overcast clouds
Banswara,IN,23.55,74.45,74.75,92,100,8.75,overcast clouds
Katangli,RU,51.7102,143.2326,59.16,87,2,9.13,clear sky
Junin,AR,-34.5838,-60.9433,80.98,50,49,3.78,scattered clouds
Marathon,US,44.9,-89.7668,85.24,57,40,0.0,scattered clouds
Miri,MY,4.4148,114.0089,77.14,94,40,1.14,moderate rain
Horsham,GB,51.064,-0.3272,65.71,79,20,6.91,few clouds
Leh,IN,34.1667,77.5833,62.49,29,96,4.07,overcast clouds
Krasnaya Polyana,RU,56.242,51.1442,68.47,53,11,3.22,few clouds
Mabai,CN,23.0128,104.4508,62.28,99,97,1.88,overcast clouds
Sharjah,AE,25.3573,55.4033,97.25,62,0,3.44,clear sky
Nouakchott,MR,18.0858,-15.9785,85.93,78,93,16.84,overcast clouds
Miguel Hidalgo,MX,19.4225,-99.2028,72.81,43,75,2.3,broken clouds
Los Pozos,VE,8.4518,-62.7268,78.53,83,100,10.8,overcast clouds
Kanigoro,ID,-8.13,112.219,72.03,90,99,8.41,overcast clouds
Salamiyah,SY,35.0113,37.0532,73.56,74,0,12.28,clear sky
Ayagoz,KZ,47.9714,80.4392,62.04,64,7,6.11,clear sky
Mount Gambier,AU,-37.8333,140.7667,40.8,97,24,5.23,few clouds
Buraydah,SA,26.326,43.975,88.25,10,1,8.41,clear sky
